network,station,latitude,longitude,elevation
AZ,BZN,33.4915,-116.667,1301
AZ,CPE,32.8889,-117.1051,150
AZ,CRY,33.5654,-116.7373,1128
AZ,FRD,33.4947,-116.6022,1164
AZ,KNW,33.7141,-116.7119,1507
AZ,LVA2,33.3516,-116.5615,1435
AZ,MONP2,32.892,-116.4223,1875
AZ,MTRP,32.8203,-117.0567,200
AZ,PFO,33.6117,-116.4594,1259
AZ,RDM,33.63,-116.8478,1365
AZ,SCI2,32.915,-118.4879,486
AZ,SMER,33.4577,-117.1708,355
AZ,SND,33.5519,-116.6129,1358
AZ,TRO,33.5234,-116.4257,2628
BC,CBX,32.3131,-116.6636,1250
BC,CCX,31.86789,-116.66446,36
BC,CPX,32.4195,-115.305,192
BC,DOCTX,31.9595,-114.7452,0
BC,GUVIX,32.3029,-115.076,10
BC,PESCX,32.4338,-114.9649,0
BC,PIX,31.5629,-113.4599,77
BC,RITX,32.166,-114.96158,9
BC,RMX,32.5535,-116.0288,1278
BC,SFX,31.0376,-114.851,39
BC,SJX,32.0048,-115.948,1616
BC,SLRCX,32.4579,-114.7049,47
BC,TJX,32.51017,-117.0543,210
BC,TKX,32.5687,-116.6075,541
BC,UABX,32.6316,-115.4447,44
BC,VTX,31.3914,-115.784,746
BC,YUCAX,32.6054,-115.0094,0
BK,BDM,37.95397,-121.86554,219
BK,BKS,37.87622,-122.23558,243
BK,CMB,38.03455,-120.38651,697
BK,CVS,38.34526,-122.4584,295
BK,HAST,36.3887,-121.5514,539
BK,HAST,36.3887,-121.5514,542
BK,HELL,36.68011,-119.02282,1137
BK,HELL,36.68011,-119.02282,1140
BK,KCC,37.32363,-119.3187,888
BK,MHC,37.34164,-121.64257,1250
BK,PKD,35.94517,-120.5416,583
BK,RAMR,35.63597,-120.86984,414
BK,RAMR,35.63597,-120.86984,416
BK,SAO,36.76403,-121.44722,317
BK,THIS,35.72405,-120.22845,643
BK,TRAM,35.67691,-120.27093,642
BK,TSCN,35.54398,-120.34806,476
BK,WENL,37.62211,-121.75697,138
CE,2143,32.8399,-116.9741,108
CE,3121,32.7488,-117.2418,11
CE,3145,32.7096,-117.1579,11
CE,3148,32.7354,-117.08,79
CE,3156,32.9154,-117.1423,131
CE,3260,32.9545,-117.0416,149
CE,3468,32.5762,-117.0849,6
CE,3471,32.6691,-117.0767,23
CE,3521,32.8793,-117.2239,105
CE,12478,33.0773,-116.4382,537
CE,12500,33.0734,-116.7685,777
CE,12626,33.4262,-116.0788,-9
CE,13070,33.4851,-117.6689,18
CE,13122,33.8688,-117.7094,116
CE,13141,33.0536,-117.2454,77
CE,13477,33.1231,-117.1219,226
CE,13577,33.928,-117.8032,227
CE,13883,33.8534,-117.8578,67
CE,13884,33.7667,-117.9178,28
CE,13921,33.9753,-117.4865,213
CE,14831,33.7918,-118.3203,32
CE,14834,33.9219,-118.3268,17
CE,14935,33.8675,-118.2618,23
CE,21513,34.1657,-115.747,370
CE,23077,34.0574,-117.6976,281
CE,23163,34.1229,-117.5398,401
CE,23173,34.0018,-117.8143,279
CE,23178,34.1321,-117.9108,184
CE,23938,34.0209,-117.8657,175
CE,23939,34.1211,-117.7382,392
CE,24014,34.0449,-118.5223,95
CE,24020,34.0752,-118.2176,106
CE,24040,34.0312,-118.2078,98
CE,24103,34.1597,-118.5337,256
CE,24110,34.1086,-118.0578,123
CE,24400,34.037,-118.178,48
CE,24765,34.2198,-118.4298,241
CE,24833,34.0627,-118.3156,60
CE,24857,34.1862,-118.9296,195
CE,24944,34.2302,-118.2528,479
CE,24945,34.1632,-118.2554,174
CE,25131,34.1507,-119.198,2
CE,25282,34.2082,-119.0797,21
CE,25325,34.2434,-119.1936,21
CE,25340,34.2764,-119.2944,16
CE,35078,35.3664,-119.9239,747
CE,35110,35.263,-119.8156,695
CE,35342,35.2607,-119.8202,669
CE,36014,35.3039,-120.0222,640
CI,ACP,32.9546,-116.30338,392
CI,ADO,34.55046,-117.43391,908
CI,AGM,32.84474,-114.78425,324
CI,AGO,34.14647,-118.76699,259
CI,ALP,34.68708,-118.29946,753
CI,APL,35.34149,-116.87464,959
CI,ARV,35.1269,-118.83009,258
CI,ASP,35.86114,-119.38511,64
CI,AVC,33.33312,-118.33542,0
CI,AVM,35.06562,-116.61549,708
CI,BAC,33.6122,-117.0406,551
CI,BAI,34.77695,-118.77335,1035
CI,BAK,35.34444,-119.10445,116
CI,BAR,32.68005,-116.67215,529
CI,BBR,34.2623,-116.92075,2069
CI,BBS,33.92139,-116.98058,785
CI,BC3,33.65515,-115.45366,1137
CI,BCW,34.94009,-119.41313,1101
CI,BEL,34.0006,-115.9982,1388
CI,BFS,34.23883,-117.65853,1312
CI,BHP,33.99053,-118.36171,81
CI,BLA2,34.06931,-116.38993,1247
CI,BLC,34.24356,-118.67312,607
CI,BLY,33.7503,-114.52375,201
CI,BOM,33.36465,-115.72963,-54
CI,BOR,33.2682,-116.41716,252
CI,BRE,33.80776,-117.98116,24
CI,BTP,34.68224,-118.57398,1702
CI,BUE,34.61299,-120.19679,110
CI,CAC,34.13678,-118.12199,230
CI,CAR,35.30819,-119.84583,765
CI,CBC,34.13972,-118.12715,253
CI,CBC,34.13989,-118.12756,253
CI,CBC,34.14011,-118.1275,239
CI,CBC,34.14011,-118.1275,248
CI,CCA,35.15252,-118.01649,710
CI,CCC,35.52495,-117.36453,670
CI,CDD,32.58395,-114.35617,213
CI,CDM,34.36855,-119.34144,166
CI,CFD,34.39927,-119.51576,8
CI,CFS,34.10539,-117.28287,312
CI,CFT,34.03547,-117.11241,682
CI,CGO,36.5504,-117.80295,2795
CI,CHF,34.33341,-118.02585,1594
CI,CHI,34.18156,-119.22244,3
CI,CHK,34.06714,-118.97118,258
CI,CHN,33.99879,-117.68044,208
CI,CHR,34.72902,-119.39269,1021
CI,CIA,33.4019,-118.41502,477
CI,CJM,34.27117,-117.42448,1616
CI,CJV2,34.52978,-118.1445,1296
CI,CKP,33.55507,-114.8904,145
CI,CLC,35.81574,-117.59751,775
CI,CLI2,33.12112,-115.58016,-60
CI,CLO,34.22038,-119.00891,48
CI,CLT,34.09284,-117.31687,325
CI,COA,32.86341,-115.12339,36
CI,COK2,32.85053,-115.7284,-14
CI,CPO,32.64266,-116.48514,838
CI,CPT2,33.34183,-117.32502,771
CI,CRF,33.87352,-118.03938,17
CI,CRF,33.87352,-118.03938,18
CI,CRG,35.2422,-119.72486,1169
CI,CRN,33.87574,-117.56106,204
CI,CRR,32.88682,-115.96918,66
CI,CSH,33.6442,-116.5956,1637
CI,CSL,34.49651,-118.61621,353
CI,CSL,34.49651,-118.61621,354
CI,CTC,33.65516,-115.99006,538
CI,CTW,33.67728,-115.87214,504
CI,CVW,34.92217,-118.93913,804
CI,CWC,36.43988,-118.08016,1595
CI,CWP,33.55797,-117.55775,242
CI,CYP,32.90611,-116.62722,1013
CI,CZN,33.91375,-116.78409,538
CI,DAN,34.63745,-115.38115,428
CI,DAW,36.27148,-117.59214,0
CI,DEC,34.25353,-118.33383,519
CI,DEV,33.93597,-116.57794,337
CI,DGR,33.65001,-117.00947,650
CI,DJJ,34.10618,-118.45505,268
CI,DJJB,34.10618,-118.45505,268
CI,DLA,33.84822,-118.09624,14
CI,DNR,33.56667,-116.63056,1274
CI,DPP,32.99889,-116.94187,463
CI,DRE,32.80532,-115.44679,-13
CI,DSC,35.14255,-116.10395,283
CI,DTC,34.42416,-118.66191,0
CI,DTC,34.42416,-118.66191,382
CI,DTP,35.26742,-117.84581,908
CI,DZA,32.60657,-116.77477,554
CI,EDW2,34.8811,-117.99388,772
CI,ELS2,33.64907,-117.42604,844
CI,EML,32.89083,-116.84566,161
CI,EMS,32.73921,-114.98521,11
CI,EOC,34.45029,-119.76941,75
CI,ERR,33.11652,-115.82273,-56
CI,ERR,33.11675,-115.82267,-56
CI,ESI2,33.67493,-117.32592,0
CI,ESI2,33.67493,-117.32592,388
CI,FDR,35.64262,-118.93433,350
CI,FHO,34.09355,-116.93588,1614
CI,FIG,34.72832,-119.98803,945
CI,FMO,34.4092,-118.92121,137
CI,FMP,33.71264,-118.29381,89
CI,FON,34.09957,-117.43876,388
CI,FOX2,34.7339,-118.24046,719
CI,FRK,33.40209,-115.63835,60
CI,FRM,34.77518,-118.96935,2443
CI,FUL,33.8717,-117.92251,51
CI,FUR,36.46703,-116.86322,-37
CI,FUR,36.46719,-116.86322,-38
CI,GATR,34.55266,-120.50235,590
CI,GCC,34.32758,-118.31888,726
CI,GFF,34.92381,-115.07266,791
CI,GFS,34.4766,-120.21436,71
CI,GLA,33.05149,-114.82706,610
CI,GMA,34.29148,-116.38256,848
CI,GMR,34.78457,-115.65994,1326
CI,GOR,33.1537,-117.22921,138
CI,GOU,34.22119,-118.18834,587
CI,GR2,34.11816,-118.30024,342
CI,GRA,36.99608,-117.36621,689
CI,GSA,34.13677,-118.1283,234
CI,GSC,35.30177,-116.80574,1000
CI,GVR,34.04972,-118.11995,141
CI,HAR,35.0114,-117.29909,620
CI,HAY,33.70734,-115.63889,458
CI,HDH,34.77529,-118.63999,964
CI,HDH,34.77529,-118.63999,965
CI,HEC,34.8294,-116.335,920
CI,HIW,35.03998,-115.38423,1276
CI,HLL,34.17643,-118.35967,193
CI,HLN,34.12128,-117.21897,358
CI,HMT2,33.70811,-117.00152,593
CI,HOL,34.45831,-117.84539,1267
CI,HYS,34.86532,-117.56975,833
CI,IDO,33.79678,-116.22152,469
CI,IDQ,33.76795,-116.23897,29
CI,IDY,33.74642,-116.71536,1632
CI,IKP,32.65012,-116.10948,906
CI,IMP,32.90147,-115.56071,-27
CI,IPT,34.19701,-117.28498,943
CI,IRG5,32.9408,-115.7958,108
CI,IRM,34.15738,-115.14513,567
CI,ISA,35.66278,-118.47403,873
CI,IVY,33.76025,-117.47678,330
CI,JEM,33.08098,-116.59755,1308
CI,JNH2,34.44894,-117.95541,1305
CI,JPLS,34.2053,-118.17368,465
CI,JRC2,35.98249,-117.80885,1469
CI,JTH,34.12644,-116.03785,606
CI,JVA,34.36622,-116.61266,904
CI,KIK,34.15037,-118.10156,237
CI,KML,33.59738,-117.87909,9
CI,KYV,33.92545,-116.1734,1498
CI,LAF,33.86889,-118.33143,20
CI,LAT,34.04449,-118.77643,351
CI,LBW1,33.798,-118.08837,-16
CI,LBW2,33.798,-118.08837,-16
CI,LCG,34.00033,-118.37794,108
CI,LCP,34.73551,-120.27996,199
CI,LDF,35.13066,-115.18416,1239
CI,LDR,34.9906,-118.34156,1121
CI,LEO,34.63064,-118.30505,1025
CI,LFP,34.30529,-118.48805,368
CI,LGB,33.9753,-118.14918,42
CI,LJR,34.80762,-118.86775,1443
CI,LKH,33.23598,-116.75876,847
CI,LLS,33.68447,-117.94304,8
CI,LMH,33.74418,-117.39135,496
CI,LMR2,34.93439,-117.69629,964
CI,LMS,33.81744,-117.445,443
CI,LMY,34.73316,-119.10391,1575
CI,LOC,34.69073,-120.4469,95
CI,LPC,34.31478,-117.54642,1351
CI,LRL,35.47954,-117.68212,1340
CI,LRR2,34.52706,-118.02998,906
CI,LTP,33.8811,-118.17568,20
CI,LUC2,34.45638,-116.96423,886
CI,LUG,34.3656,-117.36683,1140
CI,LUS,33.01375,-117.16305,120
CI,LVO,34.5558,-119.88387,275
CI,LVY,34.17408,-119.15636,11
CI,LVY,34.17408,-119.15636,12
CI,LYP,32.70333,-116.7548,886
CI,MAG,35.36165,-118.92282,135
CI,MCT,34.22645,-116.04073,661
CI,MES,34.26311,-119.09588,69
CI,MGE,33.81841,-116.36874,68
CI,MIK,34.13688,-118.12601,275
CI,MIKB,34.13688,-118.12601,231
CI,MIS,33.7403,-118.33517,299
CI,MLAC,37.63019,-118.83605,2162
CI,MLS,34.0046,-117.56162,230
CI,MMC,33.57304,-117.76258,46
CI,MMC,33.57304,-117.76258,55
CI,MNO,33.94738,-117.17278,564
CI,MOP,34.28096,-118.90469,141
CI,MOR,33.50388,-117.13993,331
CI,MPI,34.81258,-119.1453,2673
CI,MPM,36.05799,-117.48901,1839
CI,MPP,34.88848,-119.81362,1739
CI,MRS,35.42522,-116.88957,1000
CI,MSC,34.03852,-116.64795,938
CI,MSJ,33.80801,-116.96789,466
CI,MTA,33.42654,-117.37927,785
CI,MTG,33.19915,-116.64727,1092
CI,MTP,35.48434,-115.5532,1588
CI,MUR,33.59999,-117.19543,562
CI,MWC,34.22362,-118.05832,1725
CI,NBS,34.78035,-116.55798,590
CI,NCH,34.9427,-119.67395,665
CI,NEE2,34.76759,-114.61881,271
CI,NEN,34.77539,-118.50099,859
CI,NJQ,34.53412,-120.17737,219
CI,NOT,34.22869,-118.55829,247
CI,NPN,35.46739,-115.26851,935
CI,NSS2,33.55553,-115.94586,17
CI,NWH,33.73314,-117.75109,95
CI,NWH,33.73314,-117.75109,96
CI,OAT,34.34361,-118.61442,1089
CI,OCP,32.74755,-116.01931,155
CI,OGC,33.78816,-117.844,64
CI,OLI,33.94539,-117.92372,162
CI,OLP,32.60771,-116.93019,159
CI,OSI,34.6145,-118.7235,718
CI,PALA,33.38905,-117.03182,552
CI,PASC,34.17141,-118.18523,341
CI,PDE,34.44199,-118.58215,328
CI,PDM,34.30336,-114.14152,144
CI,PDR,33.96273,-118.43702,45
CI,PDU,34.1207,-117.63808,445
CI,PDW,33.92397,-117.61713,166
CI,PDW,33.92397,-117.61713,168
CI,PER,33.86164,-117.20529,468
CI,PGA,33.4914,-117.0635,351
CI,PHL,35.40773,-120.54556,355
CI,PLM,33.35361,-116.86265,1691
CI,PLS,33.7953,-117.60906,1199
CI,PMD,33.64785,-116.37769,296
CI,POB2,33.68708,-116.92382,999
CI,POR,36.10368,-119.00343,198
CI,PSD,33.82393,-116.55026,144
CI,PSR,34.09181,-117.80709,305
CI,PTD,34.00443,-118.80686,7
CI,PUT,34.69115,-117.96919,747
CI,QAD,34.42367,-119.60926,68
CI,QLC,35.04084,-119.97425,556
CI,QUG,34.39558,-118.49837,515
CI,RAG,34.68289,-116.15139,722
CI,RCR,33.36237,-116.3096,193
CI,RCT,36.30523,-119.24384,107
CI,RCU,34.08309,-117.52442,329
CI,RCU,34.08309,-117.52442,331
CI,RFR,35.11358,-120.09721,386
CI,RHC2,34.00095,-118.01333,362
CI,RHR,33.29021,-117.17648,173
CI,RIN,34.28196,-118.47925,304
CI,RINB,34.28196,-118.47925,304
CI,RIO,34.10473,-117.97956,118
CI,RKMO,33.67421,-117.60947,408
CI,RMM,34.64384,-116.62438,1777
CI,RPV,33.74346,-118.40412,107
CI,RRX,34.87533,-116.99684,676
CI,RSB,33.9731,-117.3272,297
CI,RSI,34.85191,-120.20868,181
CI,RSS,33.97327,-117.32674,298
CI,RUN,32.97222,-114.97809,116
CI,RUS,34.05075,-118.08078,70
CI,RVR,33.99351,-117.37545,266
CI,RXH,33.18313,-115.62257,-59
CI,SAL,33.2801,-115.98585,14
CI,SAN,33.70432,-117.88578,11
CI,SBB2,34.68844,-117.82424,825
CI,SBC,34.44076,-119.71492,94
CI,SBI,33.48046,-119.02986,41
CI,SBPX,34.2324,-117.23484,1860
CI,SCI2,32.9799,-118.54697,199
CI,SCZ2,33.99543,-119.6351,440
CI,SDD,33.55259,-117.66171,120
CI,SDG,32.784,-117.13805,101
CI,SDR,32.73561,-116.94241,113
CI,SES,34.43692,-119.1375,480
CI,SGL,32.64933,-115.72638,75
CI,SHO,35.89953,-116.2753,451
CI,SHO,35.8996,-116.27515,451
CI,SHU,34.64279,-118.16454,774
CI,SIL,34.34802,-116.82746,1698
CI,SIL,34.34803,-116.82747,1698
CI,SLA,35.89095,-117.28332,1174
CI,SLB,33.48519,-115.86643,0
CI,SLH,33.19269,-116.25399,208
CI,SLM,34.45227,-118.42267,523
CI,SLR,33.83359,-116.79737,1567
CI,SLV,33.23854,-115.30436,254
CI,SMF2,34.02201,-118.44627,52
CI,SMI,34.03818,-120.35132,165
CI,SMM,35.3142,-119.99581,599
CI,SMR,35.37699,-120.61247,341
CI,SMT,34.33364,-119.01381,683
CI,SMV,34.27091,-118.74407,276
CI,SMW,35.01108,-120.40997,169
CI,SNCC,33.24787,-119.52437,275
CI,SNO,34.03515,-116.80778,2339
CI,SNR,32.86189,-115.43596,-63
CI,SOC,33.38761,-117.58013,52
CI,SPF,34.05933,-118.64614,470
CI,SPG2,36.20057,-118.76624,627
CI,SQC,34.86647,-120.29439,130
CI,SRA,34.60601,-115.94987,338
CI,SRI,33.97875,-120.07886,392
CI,SRN,33.82854,-117.78938,208
CI,SRT,35.69235,-117.75051,667
CI,SSS,34.03103,-117.45498,336
CI,SSS,34.03103,-117.45498,337
CI,STC,34.30302,-119.18676,180
CI,STG,33.664,-117.76856,49
CI,STS,33.79033,-118.19878,4
CI,SVD,34.10647,-117.09822,605
CI,SWP,32.79184,-116.09718,265
CI,SWP,32.79184,-116.09718,379
CI,SWS,32.94508,-115.79988,140
CI,SYN,34.60723,-120.0696,201
CI,SYP,34.52775,-119.97834,1278
CI,SYP,34.52781,-119.97832,1278
CI,TA2,34.38203,-117.67822,2249
CI,TEH,35.2913,-118.42079,846
CI,TEJ,35.23107,-118.68878,650
CI,TER2,35.33233,-119.36238,80
CI,TFT,35.14592,-119.41946,233
CI,THC,34.90853,-118.66443,1688
CI,THM,33.65066,-116.07734,60
CI,TIN,37.05422,-118.23009,1197
CI,TJR,35.02722,-118.74373,398
CI,TOR,33.57526,-116.22584,4
CI,TOW2,35.80856,-117.76488,685
CI,TPO,34.87883,-118.22864,769
CI,TUQ,35.43584,-115.92389,1350
CI,USB,34.413,-119.8427,14
CI,USC,34.01919,-118.28631,58
CI,VCP,33.23934,-117.02125,426
CI,VCS,34.48372,-118.11781,992
CI,VDJ,34.18986,-114.57145,284
CI,VES,35.84089,-119.08469,154
CI,VLO,32.97178,-116.41061,519
CI,VLY,33.73615,-117.15806,445
CI,VOG,36.32098,-119.38226,90
CI,VTV,34.56065,-117.3296,843
CI,WAS2,35.7377,-118.55743,1828
CI,WBM,35.60839,-117.89049,892
CI,WBP,35.87841,-118.07414,2494
CI,WBS,35.53664,-118.14035,1927
CI,WCS2,36.02521,-117.76526,1143
CI,WES,32.75904,-115.73161,-8
CI,WGR,34.51085,-119.27407,554
CI,WHF,35.69513,-118.35183,859
CI,WLH2,36.15207,-118.31319,2672
CI,WLS2,34.57899,-117.71939,889
CI,WLT,34.00948,-117.95077,107
CI,WMD,33.03826,-115.58191,-45
CI,WMF,36.11758,-117.85486,1537
CI,WNM,35.8422,-117.90616,974
CI,WNS,34.115,-118.38,306
CI,WOR,35.69563,-118.24246,795
CI,WRC2,35.9479,-117.65038,943
CI,WRV2,36.00774,-117.8904,1070
CI,WSS,34.1717,-118.64971,316
CI,WTT2,33.94867,-118.25539,37
CI,WVP2,35.94939,-117.81769,1465
CI,WWC,33.94068,-116.40876,619
CI,WWF,33.27884,-115.57888,-61
CI,YEG2,35.43831,-119.96306,963
CI,YUC,34.19675,-116.40576,1077
CI,YUH2,32.64752,-115.92227,184
GS,CA07,35.79059,-117.35803,505
GS,CA08,35.7692,-117.3756,509
GS,CA09,35.62155,-117.67235,699
GS,CA10,35.56736,-117.66743,835
NC,BBGB,36.57848,-121.03957,1089
NC,BSG,36.41381,-121.25518,160
NC,MCS,37.65487,-118.90576,2417
NC,MDPB,37.63227,-119.07935,2360
NC,MMT,37.37604,-119.17962,2714
NC,MTU,37.35316,-118.56326,1792
NC,MYL,37.38349,-120.42052,57
NC,PBIB,35.1614,-120.47517,522
NC,PBM,35.39445,-120.3539,1049
NC,PCC,36.08977,-121.16361,372
NC,PHOB,35.86661,-120.47961,796
NC,PHSB,35.82404,-121.05393,475
NC,PJU,36.22697,-120.59352,925
NC,PKE,36.06103,-120.10963,244
NC,PKY,35.26401,-120.66667,101
NC,PML,34.89472,-120.60927,468
NC,PMPB,36.2159,-120.80126,802
NC,PSAB,36.02486,-120.88927,150
NC,PSM,36.06881,-120.59618,957
NC,PWM,36.43268,-120.21236,45
NN,BEN,37.7154,-118.5741,2476
NN,BHP,37.3,-118.4883,2171
NN,CAS,37.5757,-118.5539,2295
NN,DSP,37.368,-117.9722,1692
NN,GMN,37.3003,-117.2607,2168
NN,GWY,36.186,-116.6698,1538
NN,LCH,37.2329,-117.6459,1414
NN,MIL,38.0247,-118.1868,2030
NN,POC,37.3622,-118.2801,1799
NN,QSM,35.965,-116.8691,385
NN,RRK,36.0656,-115.4668,1193
NN,SHP,36.5047,-115.1567,1632
NN,WLDB,36.7927,-116.6266,955
NP,1041,34.9977,-119.4858,837
NP,1041,34.99771,-119.48584,837
NP,286,32.95477,-115.8243,218
NP,5030,34.52149,-117.99099,856
NP,5036,34.1926,-117.42744,618
NP,5053,32.6695,-115.4925,2
NP,5054,32.69323,-115.33819,9
NP,5056,32.95977,-115.32021,-3
NP,5058,32.75172,-115.59516,-6
NP,5062,33.17747,-115.61564,-64
NP,5080,34.07834,-118.69391,413
NP,5081,34.08377,-118.599,203
NP,5230,33.56809,-116.51176,1387
NP,5231,33.45931,-116.64423,1331
NP,5241,33.51237,-116.80035,1043
NP,5271,33.35262,-115.73325,-96
NP,5272,32.7081,-115.09256,38
NP,5288,33.69729,-118.02485,1
NP,5330,34.10348,-117.34895,364
NP,5337,34.14003,-117.29392,364
NP,5371,34.20588,-117.3671,567
NP,5375,33.15569,-116.1679,117
NP,5402,34.07618,-118.3959,39
NP,5403,34.39697,-119.29874,124
NP,5409,34.23396,-117.48244,840
NP,5419,35.64906,-117.66187,690
NP,5422,34.18504,-118.44698,216
NP,5425,34.27718,-118.55965,362
NP,5430,33.19814,-117.37824,25
NP,5431,34.2186,-118.86804,249
NP,5434,34.0848,-118.86379,413
NP,5442,34.04905,-116.94032,1533
NP,5444,33.63461,-116.09534,-10
NP,5480,34.70312,-118.42573,942
NP,5481,34.5993,-118.45375,918
NP,5491,32.82288,-116.52931,1129
NP,5492,34.20011,-118.36044,223
NP,5494,32.95861,-116.57937,1486
NP,5499,33.94046,-118.42066,30
PB,B079,35.7157,-120.2057,436
PB,B081,33.71117,-116.71417,1467
PB,B082,33.59818,-116.59601,1374
PB,B084,33.61157,-116.45637,1271
PB,B086,33.5575,-116.531,1392
PB,B087,33.4955,-116.60267,1139
PB,B093,33.59369,-116.7641,1229
PB,B900,35.686,-120.003,219
PB,B901,35.6897,-120.142,275
PB,B916,36.1925,-117.6685,1859
PB,B917,35.4053,-117.2588,1192
PB,B918,35.9357,-117.6017,1042
PB,B921,35.5865,-117.4622,694
PG,BLD,35.53383,-120.90667,457
PG,DCD,35.21217,-120.84084,238
PG,DPD,35.233,-120.78167,488
PG,EFD,35.3205,-120.725,95
PG,MLD,35.3225,-120.6025,762
PG,NPD,35.08633,-120.4725,452
PG,PBD,35.709,-121.2715,183
PG,PSD,34.90217,-120.62167,378
PG,VPD,35.2399,-120.869,435
SB,BVDA,33.32673,-116.36714,232
SB,CPSLO,35.30211,-120.66716,88
SB,GVDA,33.6689,-116.6738,1341
SB,WLA,33.0976,-115.5306,-61
SN,AMD,36.4526,-116.2818,775
SN,HEL,36.7246,-116.9759,747
SN,LEC,36.5627,-116.6905,1113
SN,PUV,36.9494,-115.9642,1253
SN,SGR,36.9804,-117.0336,1560
SN,TIM,37.0667,-116.4703,1871
SN,TPW,36.9016,-116.2528,1573
SN,TWP,37.2047,-116.1243,1576
SN,TYM,37.144,-116.7217,1457
WR,CSP,34.29796,-117.35833,1239
WR,FRI,36.992,-119.708,119
WR,PEC,33.89198,-117.16135,582
NO,B201,34.18272,-117.2885,485
NO,B202,34.18023,-117.2888,455
NO,B203,34.17831,-117.28899,445
NO,B204,34.17669,-117.28895,433
NO,B205,34.17438,-117.28888,424
NO,B206,34.17211,-117.28887,413
NO,B207,34.17009,-117.28992,405
NO,B208,34.16797,-117.28885,401
NO,B209,34.16534,-117.28876,401
NO,B210,34.16322,-117.28934,398
NO,B211,34.16059,-117.28883,394
NO,B212,34.15883,-117.28967,414
NO,B213,34.15689,-117.28945,391
NO,B214,34.15444,-117.28937,387
NO,B215,34.15205,-117.28934,383
NO,B216,34.15036,-117.2895,381
NO,B217,34.14807,-117.28939,379
NO,B218,34.14613,-117.28992,376
NO,B219,34.14383,-117.28976,367
NO,B220,34.14165,-117.28988,370
NO,B221,34.1389,-117.28979,366
NO,B222,34.13692,-117.28984,362
NO,B223,34.13413,-117.28977,357
NO,B224,34.13219,-117.28976,352
NO,B225,34.12998,-117.28979,352
NO,B226,34.1282,-117.28983,348
NO,B227,34.1256,-117.2899,343
NO,B229,34.12177,-117.28985,336
NO,B230,34.11944,-117.28987,334
NO,B231,34.11733,-117.28989,330
NO,B232,34.11464,-117.28989,328
NO,B233,34.11227,-117.29019,326
NO,B234,34.11063,-117.29035,325
NO,B235,34.1076,-117.28981,321
NO,B236,34.10583,-117.28983,318
NO,B237,34.10444,-117.29048,318
NO,B239,34.09935,-117.28989,309
NO,B240,34.09786,-117.29072,307
NO,B241,34.09521,-117.29091,306
NO,B242,34.09372,-117.28951,306
NO,B243,34.09173,-117.2898,304
NO,B245,34.08614,-117.28928,302
NO,B246,34.08406,-117.29235,302
NO,B247,34.0819,-117.29027,302
NO,B249,34.07764,-117.29138,301
NO,B250,34.07537,-117.29138,300
NO,B251,34.07424,-117.29145,300
NO,B252,34.07092,-117.29148,300
NO,B254,34.06679,-117.29104,300
NO,B255,34.06448,-117.29151,300
NO,B256,34.0627,-117.29064,302
NO,B257,34.06029,-117.29123,299
NO,B258,34.05909,-117.2918,299
NO,B259,34.05558,-117.2907,305
NO,B260,34.0534,-117.29186,308
NO,B261,34.05058,-117.28993,314
NO,B301,34.16496,-117.52316,625
NO,B302,34.16265,-117.52318,607
NO,B303,34.16014,-117.52349,588
NO,B304,34.15839,-117.52345,573
NO,B305,34.15571,-117.52348,553
NO,B306,34.15407,-117.52357,541
NO,B307,34.15152,-117.5238,523
NO,B308,34.14862,-117.52375,504
NO,B309,34.14653,-117.5237,491
NO,B310,34.1438,-117.5252,474
NO,B311,34.14154,-117.5234,462
NO,B312,34.1396,-117.52375,454
NO,B313,34.13774,-117.52323,447
NO,B314,34.13504,-117.52371,435
NO,B315,34.13316,-117.52364,430
NO,B316,34.13047,-117.52322,422
NO,B317,34.12796,-117.52373,415
NO,B318,34.126212,-117.52375,412
NO,B319,34.12449,-117.5239,406
NO,B320,34.12214,-117.52378,400
NO,B321,34.11916,-117.52326,394
NO,B322,34.11779,-117.5239,392
NO,B323,34.11493,-117.52345,386
NO,B324,34.11284,-117.52338,382
NO,B325,34.11071,-117.52354,378
NO,B326,34.10782,-117.52355,372
NO,B327,34.10529,-117.52351,365
NO,B328,34.10373,-117.52293,362
NO,B329,34.1017,-117.52393,358
NO,B330,34.09883,-117.52261,354
NO,B331,34.09731,-117.52367,351
NO,B332,34.09437,-117.52369,347
NO,B333,34.09225,-117.52367,343
NO,B334,34.09043,-117.52399,339
NO,B335,34.0878,-117.52415,335
NO,B336,34.08571,-117.52409,333
NO,B337,34.08342,-117.52413,330
NO,B338,34.08046,-117.5243,325
NO,B339,34.0775,-117.5248,319
NO,B340,34.07653,-117.5242,318
NO,B341,34.07423,-117.52422,314
NO,B342,34.07124,-117.52515,312
NO,B343,34.06944,-117.52375,308
NO,B345,34.06507,-117.52319,302
NO,B346,34.06271,-117.52274,300
NO,B347,34.05985,-117.5239,294
NO,B348,34.05793,-117.52387,292
NO,B349,34.0554,-117.52395,288
NO,B350,34.0526,-117.52377,285
NO,B351,34.05141,-117.52384,283
NO,B352,34.04902,-117.5239,281
NO,B353,34.04712,-117.5239,281
NO,B354,34.04449,-117.52396,275
NO,B355,34.04213,-117.52393,277
NO,B356,34.04024,-117.52411,268
NO,B357,34.03818,-117.52405,264
NO,B358,34.0363,-117.52412,262
NO,B359,34.03354,-117.52386,261
NO,B360,34.03112,-117.52387,257
NO,B361,34.02916,-117.5241,254
NO,B362,34.02665,-117.52392,251
NO,B363,34.02389,-117.52413,248
NO,B364,34.02235,-117.52424,247
NO,B365,34.01928,-117.52422,243
NO,B366,34.01717,-117.52408,235
NO,B367,34.01529,-117.52422,237
NO,B368,34.01337,-117.52428,235
NO,B369,34.01084,-117.52424,233
NO,B370,34.00835,-117.52426,232
NO,B371,34.00706,-117.52426,229
NO,B372,34.00395,-117.52431,227
NO,B373,34.00211,-117.52435,225
NO,B374,33.99973,-117.52248,223
NO,B375,33.99686,-117.52318,222
NO,B376,33.99545,-117.52321,221
NO,B378,33.99126,-117.52319,217
NO,B379,33.98787,-117.52312,215
NO,B380,33.98615,-117.5232,214
NO,B381,33.98384,-117.52324,212
NO,B382,33.98157,-117.52313,209
NO,B383,33.97914,-117.52314,208
NO,B384,33.97638,-117.52316,206
NO,B385,33.9745,-117.52315,205
NO,B386,33.97209,-117.52332,205
NO,B387,33.96976,-117.52312,204
NO,B4003,34.15833,-117.64694,649
NO,B4004,34.15667,-117.64889,628
NO,B4005,34.15361,-117.64806,598
NO,B4006,34.15083,-117.64778,581
NO,B4007,34.14889,-117.64833,568
NO,B4008,34.14583,-117.64694,549
NO,B4009,34.14333,-117.64806,540
NO,B4010,34.14083,-117.6475,525
NO,B4011,34.1375,-117.64833,502
NO,B4012,34.13583,-117.64694,503
NO,B4013,34.1325,-117.6475,489
NO,B4014,34.13139,-117.6475,485
NO,B4015,34.12667,-117.6475,468
NO,B4016,34.12472,-117.64722,462
NO,B4017,34.12167,-117.6475,452
NO,B4018,34.11833,-117.6475,440
NO,B4019,34.11611,-117.64833,434
NO,B4020,34.11389,-117.64611,427
NO,B4021,34.11194,-117.64722,420
NO,B4022,34.10944,-117.6475,413
NO,B4023,34.10583,-117.64722,402
NO,B4024,34.10333,-117.6475,395
NO,B4025,34.10139,-117.64722,389
NO,B4027,34.09583,-117.64611,375
NO,B4028,34.09194,-117.64722,364
NO,B4029,34.08917,-117.64722,357
NO,B4030,34.08639,-117.64694,350
NO,B4031,34.08417,-117.64694,347
NO,B4032,34.08139,-117.64722,340
NO,B4033,34.07889,-117.64667,335
NO,B4034,34.07611,-117.64778,329
NO,B4035,34.07306,-117.64722,324
NO,B4036,34.07139,-117.6475,322
NO,B4037,34.06806,-117.64806,314
NO,B4038,34.06611,-117.64583,310
NO,B4039,34.06167,-117.64694,302
NO,B4040,34.05889,-117.64722,298
NO,B4041,34.05806,-117.64694,295
NO,B4042,34.05611,-117.64667,292
NO,B4043,34.05139,-117.6475,287
NO,B4044,34.04944,-117.64722,282
NO,B4046,34.04389,-117.64694,274
NO,B4047,34.04222,-117.6475,272
NO,B4048,34.03972,-117.64722,268
NO,B4049,34.03667,-117.6475,264
NO,B4050,34.03361,-117.64722,259
NO,B4051,34.02833,-117.64778,251
NO,B4052,34.02806,-117.64667,252
NO,B4053,34.02611,-117.6475,249
NO,B4054,34.02278,-117.6475,247
NO,B4055,34.02361,-117.6475,244
NO,B4056,34.0175,-117.64583,237
NO,B4057,34.01694,-117.65056,238
NO,B4058,34.01194,-117.64917,229
NO,B4059,34.00987,-117.65063,226
NO,B4060,34.00731,-117.65053,225
NO,B4061,34.00491,-117.64701,220
NO,B4062,34.00186,-117.64574,216
NO,B4063,33.99902,-117.64553,213
NO,B4064,33.99766,-117.64634,211
NO,B4065,33.99396,-117.64552,207
NO,B4066,33.99234,-117.64534,205
NO,B4067,33.98776,-117.65055,199
NO,B4068,33.98559,-117.65055,197
NO,B4069,33.98286,-117.64759,194
NO,B4070,33.98087,-117.64755,192
NO,B4071,33.97757,-117.65032,189
NO,B4072,33.97512,-117.65031,186
NO,B4073,33.97203,-117.6503,184
NO,B4074,33.96962,-117.65028,182
NO,B4075,33.96771,-117.64753,181
NO,B4076,33.96525,-117.64742,179
NO,B4077,33.9614,-117.64745,175
NO,B4078,33.9597,-117.64244,176
NO,B4079,33.95631,-117.64664,171
NO,B4080,33.95363,-117.64605,172
NO,B4081,33.95088,-117.64589,170
NO,B4082,33.94849,-117.64709,166
NO,B4083,33.94543,-117.64702,166
NO,B4084,33.94323,-117.64642,161
NO,B4085,33.94021,-117.64714,161
NO,B4086,33.93687,-117.6467,155
NO,B4087,33.9345,-117.6471,156
NO,B4088,33.93237,-117.65187,154
NO,B4089,33.92878,-117.65048,156
NO,B4090,33.9268,-117.65257,167
NO,B4091,33.92513,-117.65179,155
NO,B4092,33.9221,-117.65205,158
NO,B4093,33.9186,-117.65212,160
NO,B4094,33.9163,-117.65136,162
NO,B4095,33.91415,-117.64978,154
NO,B4096,33.91019,-117.6489,156
NO,B5001,34.18944,-117.43581,4195619
NO,B5002,34.18751,-117.43752,4195619
NO,B5003,34.18453,-117.43613,4195619
NO,B5004,34.18287,-117.43719,4195619
NO,B5005,34.1795,-117.43661,4195619
NO,B5006,34.17726,-117.43666,4195619
NO,B5007,34.1749,-117.43644,4195619
NO,B5008,34.17253,-117.43674,4195619
NO,B5009,34.16997,-117.43686,4195619
NO,B5010,34.16799,-117.43674,4195619
NO,B5011,34.16556,-117.43673,4195619
NO,B5012,34.16298,-117.43672,4195619
NO,B5013,34.16058,-117.43664,4195619
NO,B5014,34.15825,-117.4358,4195619
NO,B5015,34.156,-117.4357,4195619
NO,B5016,34.15415,-117.43542,4195619
NO,B5017,34.1503,-117.43574,4195619
NO,B5018,34.14864,-117.43633,4195619
NO,B5019,34.14645,-117.43633,4195619
NO,B5020,34.14392,-117.43633,4195619
NO,B5021,34.1416,-117.43629,4195619
NO,B5022,34.13903,-117.43635,4195619
NO,B5023,34.1369,-117.43635,4195619
NO,B5024,34.13434,-117.43645,4195619
NO,B5025,34.13222,-117.43587,4195619
NO,B5026,34.12973,-117.43607,4195619
NO,B5027,34.1272,-117.43628,4195619
NO,B5028,34.12521,-117.43636,4195619
NO,B5029,34.12267,-117.43604,4195619
NO,B5030,34.11993,-117.43565,4195619
NO,B5031,34.11788,-117.43565,4195619
NO,B5032,34.1175,-117.43694,4195619
NO,B5033,34.11349,-117.43561,4195619
NO,B5034,34.1113,-117.43559,4195619
NO,B5035,34.10864,-117.43657,4195619
NO,B5036,34.10568,-117.43663,4195619
NO,B5037,34.10308,-117.43466,4195619
NO,B5038,34.1016,-117.43748,4195619
NO,B5039,34.09867,-117.4345,4195619
NO,B5040,34.09614,-117.43716,4195619
NO,B5041,34.09397,-117.43714,4195619
NO,B5043,34.08836,-117.43785,4195619
NO,B5044,34.08702,-117.43719,4195619
NO,B5046,34.08272,-117.43827,4195619
NO,B5047,34.08027,-117.43529,4195619
NO,B5048,34.07812,-117.43619,4195619
NO,B5049,34.07473,-117.43507,4195619
NO,B5050,34.07288,-117.43733,4195619
NO,B5051,34.07126,-117.43675,4195619
NO,B5052,34.06822,-117.43616,4195619
NO,B5053,34.06602,-117.43528,4195619
NO,B5054,34.06356,-117.43528,4195619
NO,B5055,34.06104,-117.43515,4195619
NO,B5056,34.05898,-117.43594,4195619
NO,B5057,34.05642,-117.43632,4195619
NO,B5058,34.05398,-117.43459,4195619
NO,B5059,34.05135,-117.43578,4195619
NO,B5060,34.04877,-117.43613,4195619
NO,B5061,34.04708,-117.43528,4195619
NO,B5062,34.0438,-117.43572,4195619
NO,B6001,34.11564,-117.28928,330
NO,B6002,34.11564,-117.28555,328
NO,B6003,34.11568,-117.28301,326
NO,B6004,34.11569,-117.27962,326
NO,B6005,34.11593,-117.27621,326
NO,B6007,34.11598,-117.26803,324
NO,B6008,34.11549,-117.26474,324
NO,B6009,34.116,-117.26084,326
NO,B6010,34.11563,-117.25763,328
NO,B6011,34.11594,-117.25572,330
NO,B6013,34.11562,-117.24919,335
NO,B6014,34.11587,-117.24588,337
NO,B6015,34.11559,-117.24164,340
NO,B6016,34.11561,-117.23811,343
NO,B6017,34.11538,-117.23504,345
NO,B6018,34.11562,-117.23118,348
NO,B6020,34.11546,-117.22475,352
NO,B6021,34.11559,-117.22221,354
NO,B6022,34.11557,-117.21883,359
NO,B6023,34.11563,-117.21571,360
NO,B6024,34.11583,-117.21215,364
NO,B6025,34.1159,-117.20838,368
NO,B6026,34.11615,-117.2059,373
NO,B6027,34.11605,-117.20165,378
NO,B6028,34.12041,-117.19935,394
NO,B6029,34.11264,-117.19102,383
NO,B6030,34.11892,-117.18708,397
NO,B6031,34.1194,-117.18132,399
NO,B6032,34.11889,-117.17651,442
NO,B6033,34.11587,-117.17499,430
NO,G1001,34.16019,-118.01166,229
NO,G1002,34.15801,-118.0119,210
NO,G1003,34.15536,-118.01119,190
NO,G1004,34.15374,-118.01111,181
NO,G1005,34.15185,-118.01114,170
NO,G1006,34.14891,-118.01159,158
NO,G1007,34.14682,-118.01182,151
NO,G1008,34.1445,-118.01079,148
NO,G1009,34.14184,-118.01088,143
NO,G1010,34.14086,-118.01198,141
NO,G1011,34.13735,-118.01125,141
NO,G1012,34.1358,-118.01186,136
NO,G1013,34.13387,-118.01039,134
NO,G1014,34.13202,-118.01069,131
NO,G1015,34.12938,-118.01083,129
NO,G1016,34.12661,-118.01112,125
NO,G1017,34.12524,-118.01116,123
NO,G1018,34.12259,-118.01132,121
NO,G1019,34.12006,-118.01181,118
NO,G1020,34.11775,-118.01036,115
NO,G1021,34.11598,-118.01244,114
NO,G1022,34.1139,-118.01147,111
NO,G1023,34.1114,-118.0122,109
NO,G1024,34.1092,-118.0116,107
NO,G1025,34.10725,-118.01157,103
NO,G1026,34.10491,-118.00912,92
NO,G1027,34.10244,-118.0105,98
NO,G1028,34.1008,-118.0114,95
NO,G1029,34.09854,-118.01199,104
NO,G1030,34.09641,-118.01132,102
NO,G1031,34.09441,-118.01115,102
NO,G1032,34.09144,-118.0118,101
NO,G1033,34.08968,-118.01038,192
NO,G1034,34.08763,-118.0119,101
NO,G1035,34.08571,-118.0108,101
NO,G1036,34.08371,-118.0109,99
NO,G1037,34.08113,-118.01099,98
NO,G1038,34.07867,-118.01124,96
NO,G1039,34.07652,-118.01094,96
NO,G1040,34.07438,-118.01058,95
NO,G1041,34.07265,-118.01254,94
NO,G1042,34.07011,-118.01098,93
NO,G1043,34.06796,-118.0116,93
NO,G1044,34.06466,-118.01012,92
NO,G1045,34.06324,-118.01257,91
NO,G1046,34.06096,-118.01058,91
NO,G1047,34.05923,-118.01152,89
NO,G1048,34.0565,-118.01137,88
NO,G1049,34.05467,-118.01215,89
NO,G1050,34.05173,-118.01144,86
NO,G1051,34.05045,-118.01103,84
NO,G1052,34.04839,-118.01184,84
NO,G1053,34.04586,-118.01055,82
NO,G1054,34.04366,-118.01112,81
NO,G1055,34.04108,-118.01174,81
NO,G1056,34.03896,-118.01092,95
NO,G1057,34.03671,-118.01157,98
NO,G1058,34.03494,-118.01144,96
NO,G1059,34.03274,-118.01142,92
NO,G1060,34.03159,-118.00527,88
NO,G2001,34.16028,-118.17361,276
NO,G2002,34.15696,-118.17051,266
NO,G2003,34.15474,-118.16852,242
NO,G2004,34.15252,-118.16653,236
NO,G2005,34.15028,-118.16528,234
NO,G2006,34.1475,-118.1625,274
NO,G2007,34.14487,-118.15991,272
NO,G2008,34.1409,-118.15692,256
NO,G2009,34.14139,-118.15556,252
NO,G2010,34.13959,-118.15561,250
NO,G2011,34.1375,-118.15278,244
NO,G2012,34.135,-118.15028,238
NO,G2013,34.13222,-118.14889,234
NO,G2014,34.13111,-118.1475,232
NO,G2015,34.12889,-118.14417,233
NO,G2016,34.12556,-118.14306,226
NO,G2017,34.12333,-118.14111,224
NO,G2018,34.12111,-118.13778,217
NO,G2019,34.11892,-118.13585,208
NO,G2020,34.11665,-118.13447,187
NO,G2021,34.11444,-118.13333,181
NO,G2022,34.11262,-118.13062,174
NO,G2023,34.11023,-118.12932,169
NO,G2024,34.10855,-118.1269,164
NO,G2025,34.1062,-118.125,159
NO,G2026,34.104,-118.12257,163
NO,G2027,34.10107,-118.12062,147
NO,G2028,34.09912,-118.11908,142
NO,G2029,34.09698,-118.11722,138
NO,G2031,34.09306,-118.11111,126
NO,G2032,34.09056,-118.10917,122
NO,G2033,34.08678,-118.10985,115
NO,G2034,34.08583,-118.10667,114
NO,G2035,34.08389,-118.105,107
NO,G2036,34.08167,-118.10333,105
NO,G2037,34.07917,-118.10111,104
NO,G2038,34.07744,-118.09822,100
NO,G2039,34.07472,-118.09667,96
NO,G2040,34.07306,-118.09611,95
NO,G2041,34.07057,-118.09235,93
NO,G2042,34.06833,-118.09167,90
NO,G2043,34.0664,-118.08935,87
NO,G2044,34.06393,-118.08731,84
NO,G2045,34.06139,-118.085,80
NO,G2046,34.05955,-118.08315,77
NO,G2047,34.05722,-118.08111,74
NO,G2048,34.05472,-118.07833,71
NO,G2049,34.05278,-118.07833,70
NO,G2050,34.05155,-118.07149,68
NO,G3001,34.14611,-117.88111,4195619
NO,G3002,34.14435,-117.8806,4195619
NO,G3003,34.14198,-117.88085,4195619
NO,G3004,34.13926,-117.88105,4195619
NO,G3005,34.13675,-117.88102,4195619
NO,G3006,34.13334,-117.88143,4195619
NO,G3007,34.13109,-117.88108,4195619
NO,G3008,34.12851,-117.88097,4195619
NO,G3009,34.1249,-117.88136,4195619
NO,G3010,34.12295,-117.88129,4195619
NO,G3011,34.12003,-117.88098,4195619
NO,G3012,34.11789,-117.88223,4195619
NO,G3013,34.11557,-117.8808,4195619
NO,G3014,34.11226,-117.8815,4195619
NO,G3015,34.11,-117.88148,4195619
NO,G3016,34.10782,-117.88109,4195619
NO,G3017,34.1025,-117.88072,4195619
NO,G3018,34.10295,-117.8812,4195619
NO,G3019,34.09955,-117.88113,4195619
NO,G3020,34.097,-117.88128,4195619
NO,G3021,34.09523,-117.88162,4195619
NO,G3022,34.09218,-117.88153,4195619
NO,G3023,34.08937,-117.88122,4195619
NO,G3024,34.08642,-117.8815,4195619
NO,G3025,34.08417,-117.88118,4195619
NO,G3026,34.08117,-117.8815,4195619
NO,G3027,34.07908,-117.8811,4195619
NO,G3028,34.07635,-117.88193,4195619
NO,G3029,34.07363,-117.88153,4195619
NO,G3030,34.07127,-117.88235,4195619
NO,G3031,34.06832,-117.88148,4195619
NO,G3032,34.06538,-117.88157,4195619
NO,G3033,34.06328,-117.88157,4195619
NO,G3034,34.06095,-117.8824,4195619
NO,G4001,34.12788,-117.8071,4195619
NO,G4002,34.12616,-117.80704,4195619
NO,G4003,34.12434,-117.80795,4195619
NO,G4004,34.122,-117.80628,4195619
NO,G4005,34.12126,-117.80618,4195619
NO,G4006,34.11747,-117.80864,4195619
NO,G4007,34.1162,-117.80644,4195619
NO,G4008,34.11351,-117.80696,4195619
NO,G4009,34.11132,-117.80689,4195619
NO,G4010,34.10954,-117.80798,4195619
NO,G4011,34.10812,-117.80733,4195619
NO,G4012,34.1055,-117.80727,4195619
NO,G4013,34.10372,-117.80732,4195619
NO,G4014,34.10147,-117.80733,4195619
NO,G4015,34.09965,-117.80701,4195619
ZY,THMJ,34.11181,-117.17993,0
ZY,ETIW,34.12905,-117.50771,0
ZY,JEBA,34.083,-117.19228,0
ZY,VINE,34.23744,-117.40344,0
ZY,LUTH,34.04717,-117.18212,0
ZY,NERA,34.3312,-118.00201,0
ZY,BOBI,34.15256,-117.27132,0
ZY,KUZD,34.1353,-117.17528,0
ZY,ATAT,33.94907,-117.42733,0
ZY,LUCI,34.06675,-117.0028,0
ZY,ROUF,34.18172,-117.29407,0
ZY,GRAS,34.13272,-117.29248,0
ZY,ROPE,34.18348,-117.31934,0
ZY,ALLI,34.04877,-116.94848,0
ZY,ARNO,34.10574,-117.11326,0
ZY,CPPC,34.05467,-117.8302,0
ZY,COLT,34.04815,-117.2899,0
ZY,MASS,33.98657,-117.3218,0
ZY,STRA,34.12506,-117.2027,0
ZY,BOTA,34.11298,-117.7159,0
ZY,CP01,34.0463,-117.6783,0
ZY,CP02,34.1126,-117.7159,0
ZY,CP03,34.0481,-117.2898,0
ZY,CP04,34.1251,-117.2026,0
ZY,CP05,33.9865,-117.3218,0
ZY,CP06,34.0546,-117.8302,0
NO,B1001,34.10679,-118.1748,197
NO,B1002,34.10718,-118.17133,195
NO,B1003,34.1066,-118.1675,193
NO,B1004,34.1069,-118.1648,190
NO,B1005,34.1069,-118.1614,188
NO,B1006,34.1074,-118.1571,186
NO,B1007,34.1068,-118.1548,184
NO,B1008,34.1068,-118.1519,181
NO,B1009,34.1066,-118.1478,179
NO,B1010,34.1067,-118.1444,177
NO,B1011,34.1069,-118.1412,174
NO,B1012,34.1065,-118.1382,172
NO,B1013,34.1064,-118.1344,169
NO,B1014,34.1063,-118.1309,166
NO,B1015,34.1065,-118.1274,164
NO,B1016,34.107,-118.1239,161
NO,B1017,34.1069,-118.1212,158
NO,B1018,34.1072,-118.1178,155
NO,B1019,34.1068,-118.1137,153
NO,B1020,34.107,-118.1098,150
NO,B1021,34.106944,-118.106944,148
NO,B1022,34.107317,-118.104617,147
NO,B1023,34.106906,-118.101031,146
NO,B1025,34.107222,-118.093333,142
NO,B1026,34.106967,-118.090433,141
NO,B1027,34.107017,-118.08755,140
NO,B1028,34.107222,-118.083611,138
NO,B1029,34.107083,-118.079867,136
NO,B1030,34.107117,-118.077467,135
NO,B1031,34.1065,-118.072917,133
NO,B1032,34.1064,-118.06965,130
NO,B1033,34.106883,-118.066983,128
NO,B1034,34.107367,-118.063267,126
NO,B1035,34.107833,-118.0595,124
NO,B1036,34.106767,-118.05625,121
NO,B1037,34.106633,-118.0533,119
NO,B1038,34.10645,-118.049633,117
NO,B1039,34.106633,-118.046783,114
NO,B1040,34.107239,-118.04207,112
NO,B1041,34.1075,-118.0425,112
NO,B1042,34.107222,-118.039444,111
NO,B1043,34.105556,-118.036667,110
NO,B1044,34.106389,-118.032778,110
NO,B1045,34.106389,-118.028889,110
NO,B1046,34.106944,-118.026111,109
NO,B1047,34.106667,-118.022778,108
NO,B1048,34.107778,-118.018611,108
NO,B1049,34.108333,-118.016111,108
NO,B1050,34.109167,-118.0125,107
NO,B1051,34.109722,-118.009167,109
NO,B1052,34.111111,-118.003611,110
NO,B1053,34.111667,-117.999444,112
NO,B1054,34.112222,-117.995833,114
NO,B1055,34.112778,-117.991389,116
NO,B1056,34.110556,-117.985833,117
NO,B1057,34.108611,-117.979444,119
NO,B1058,34.106667,-117.974722,121
NO,B1061,34.106667,-117.973333,126
NO,B1062,34.106944,-117.968333,127
NO,B1063,34.106944,-117.965,129
NO,B1064,34.106667,-117.961389,131
NO,B1065,34.106667,-117.957778,132
NO,B1066,34.106944,-117.953889,134
NO,B1067,34.106389,-117.950833,136
NO,B1068,34.10692,-117.948316,138
NO,B1069,34.106944,-117.944167,139
NO,B1070,34.107222,-117.940556,141
NO,B1071,34.107222,-117.938333,142
NO,B1072,34.1075,-117.935,143
NO,B1073,34.107222,-117.931111,145
NO,B1074,34.107222,-117.928056,146
NO,B1075,34.107222,-117.924167,147
NO,B1076,34.106779,-117.920646,148
NO,B1077,34.107222,-117.917222,149
NO,B1078,34.107222,-117.914167,151
NO,B1079,34.106944,-117.910833,152
NO,B1080,34.106944,-117.906111,153
NO,B1081,34.10691,-117.90381,157
NO,B1082,34.10647,-117.90056,161
NO,B1083,34.10693,-117.89684,166
NO,B1085,34.107,-117.88986,174
NO,B1086,34.10691,-117.88665,178
NO,B1087,34.10719,-117.88368,182
NO,B1088,34.1069,-117.88034,187
NO,B1089,34.10676,-117.87735,191
NO,B1090,34.10669,-117.87319,195
NO,B1091,34.10658,-117.86969,201
NO,B1092,34.10684,-117.86649,208
NO,B1093,34.10683,-117.86247,214
NO,B1094,34.10683,-117.85923,220
NO,B1095,34.10697,-117.85665,226
NO,B1096,34.10682,-117.85283,233
NO,B1097,34.10686,-117.84968,239
NO,B1098,34.10741,-117.84649,245
NO,B1099,34.10686,-117.84265,252
NO,B1100,34.10687,-117.834,258
NO,B1110,34.1078,-117.8064,296
NO,B1112,34.1076,-117.8014,302
NO,B1113,34.1061,-117.7969,305
NO,B1114,34.1053,-117.7911,308
NO,B1115,34.108,-117.7885,310
NO,B1116,34.1071,-117.7848,313
NO,B1117,34.1059,-117.7818,316
NO,B1118,34.1057,-117.778353,319
NO,B1119,34.1072,-117.761,322
NO,B1120,34.1067,-117.7772,325
NO,B1121,34.1071,-117.768733,329
NO,B1122,34.106567,-117.764933,333
NO,B1123,34.107733,-117.76195,337
NO,B1124,34.1065,-117.75865,341
NO,B1125,34.106783,-117.754517,345
NO,B1126,34.106617,-117.751033,349
NO,B1127,34.106617,-117.748,353
NO,B1129,34.107333,-117.741167,361
NO,B1130,34.1074,-117.73775,365
NO,B1131,34.107217,-117.734033,369
NO,B1132,34.107217,-117.730983,373
NO,B1133,34.10655,-117.7276,378
NO,B1134,34.10655,-117.723567,382
NO,B1135,34.106417,-117.719983,386
NO,B1136,34.1069,-117.716817,390
NO,B1137,34.106783,-117.713317,394
NO,B1138,34.106767,-117.710267,399
NO,B1139,34.1066,-117.707383,403
NO,B1140,34.10715,-117.703267,407
NO,B1141,34.106944,-117.700278,408
NO,B1142,34.107261,-117.696581,409
NO,B1143,34.106917,-117.693683,409
NO,B1144,34.106967,-117.690033,410
NO,B1145,34.106944,-117.686389,411
NO,B1146,34.106967,-117.683133,412
NO,B1147,34.106683,-117.679917,413
NO,B1148,34.106683,-117.676333,413
NO,B1149,34.106767,-117.673217,414
NO,B1150,34.106717,-117.6698,415
NO,B1151,34.1068,-117.666333,413
NO,B1152,34.1068,-117.662883,412
NO,B1153,34.106817,-117.658733,410
NO,B1154,34.1068,-117.655867,408
NO,B1155,34.10685,-117.6527,406
NO,B1156,34.106867,-117.649383,405
NO,B1157,34.106833,-117.645967,403
NO,B1158,34.106783,-117.6427,401
NO,B1159,34.1069,-117.639117,400
NO,B1160,34.106783,-117.635933,398
NO,B1161,34.10666,-117.63248,395
NO,B1162,34.10693,-117.62885,392
NO,B1163,34.10722,-117.62543,390
NO,B1164,34.10664,-117.62196,387
NO,B1165,34.10733,-117.6188,384
NO,B1166,34.10671,-117.6157,381
NO,B1167,34.10689,-117.61177,378
NO,B1168,34.1068,-117.60835,376
NO,B1169,34.10679,-117.60537,373
NO,B1170,34.1067,-117.60213,370
NO,B1171,34.1068,-117.59859,370
NO,B1172,34.10696,-117.59585,371
NO,B1173,34.10677,-117.59245,371
NO,B1174,34.10683,-117.58836,371
NO,B1175,34.10701,-117.5853,372
NO,B1176,34.10685,-117.58198,372
NO,B1177,34.10677,-117.57844,372
NO,B1178,34.10672,-117.57459,372
NO,B1179,34.10683,-117.57146,373
NO,B1180,34.10673,-117.56793,373
NO,B1181,34.106667,-117.564444,373
NO,B1182,34.106762,-117.561212,373
NO,B1183,34.107292,-117.558956,373
NO,B1184,34.107823,-117.555306,373
NO,B1185,34.106622,-117.551286,372
NO,B1186,34.107258,-117.54808,372
NO,B1187,34.10663,-117.544388,372
NO,B1188,34.10662,-117.540809,372
NO,B1189,34.106862,-117.537544,372
NO,B1190,34.106786,-117.533926,372
NO,B1191,34.106618,-117.5307,372
NO,B1192,34.107071,-117.527451,373
NO,B1193,34.106445,-117.525047,373
NO,B1194,34.106599,-117.520075,373
NO,B1195,34.106578,-117.517102,374
NO,B1196,34.106913,-117.513608,374
NO,B1197,34.106833,-117.51105,374
NO,B1198,34.106949,-117.506593,374
NO,B1199,34.107128,-117.503072,375
NO,B1200,34.106961,-117.500282,375
NO,B1201,34.10665,-117.4968,377
NO,B1202,34.10687,-117.49282,379
NO,B1203,34.10704,-117.4902,380
NO,B1204,34.10676,-117.48687,382
NO,B1205,34.1068,-117.48342,384
NO,B1206,34.10685,-117.47993,386
NO,B1207,34.10701,-117.4768,388
NO,B1208,34.10668,-117.47293,389
NO,B1209,34.10656,-117.46938,391
NO,B1210,34.10667,-117.46616,393
NO,B1211,34.10662,-117.46354,394
NO,B1212,34.10677,-117.4605,396
NO,B1213,34.10705,-117.45603,397
NO,B1214,34.10692,-117.45261,399
NO,B1215,34.10676,-117.44989,400
NO,B1216,34.10675,-117.44623,402
NO,B1217,34.1067,-117.44353,404
NO,B1218,34.10667,-117.43914,405
NO,B1219,34.10727,-117.43557,406
NO,B1220,34.10691,-117.43274,408
NO,B1222,34.10646,-117.42487,406
NO,B1224,34.106667,-117.418611,405
NO,B1225,34.106667,-117.415278,404
NO,B1226,34.106667,-117.411667,403
NO,B1227,34.10728,-117.40954,402
NO,B1228,34.10728,-117.40515,402
NO,B1230,34.1075,-117.398889,400
NO,B1231,34.107222,-117.395278,398
NO,B1232,34.106944,-117.392778,396
NO,B1233,34.106944,-117.388611,395
NO,B1234,34.106944,-117.385556,393
NO,B1235,34.106389,-117.381667,391
NO,B1236,34.106667,-117.378056,389
NO,B1237,34.107222,-117.375278,387
NO,B1238,34.106944,-117.370833,386
NO,B1241,34.10654,-117.36055,378
NO,B1242,34.10661,-117.35713,374
NO,B1243,34.10697,-117.35472,370
NO,B1244,34.10638,-117.351,366
NO,B1245,34.10656,-117.34753,362
NO,B1246,34.1067,-117.34395,358
NO,B1247,34.10666,-117.34053,354
NO,B1248,34.10678,-117.33669,350
NO,B1249,34.10629,-117.3344,346
NO,B1250,34.10686,-117.33019,342
NO,B1251,34.10809,-117.32636,340
NO,B1252,34.10781,-117.32201,339
NO,B1254,34.10754,-117.31174,336
NO,B1255,34.1075,-117.31437,334
NO,B1256,34.10786,-117.30911,333
NO,B1257,34.10822,-117.30565,332
NO,B1259,34.1082,-117.29974,328
NO,B1260,34.10763,-117.29671,327
